ID,name,lat,lon,capacity
DC_RUH,Riyadh,24.7136,46.6753,31779
DC_JED,Jeddah,21.4858,39.1925,40129
DC_DMM,Dammam,26.3927,49.9777,29463
DC_TUU,Tabuk,28.3838,36.5662,36825
DC_ELQ,Buraydah,26.326,43.975,29812
DC_KHB,Khamis Mushait,18.3059,42.7309,44512
DC_MED,Medina,24.5247,39.5692,28738
